01/01/0001 0:00:00 01/01/0001 0:00:00 FD  5  0  0 1A  1  1     7D mavlink_power_status_t Vcc 5243 Vservo 50 flags 2  sig  Len 17 crc16 27483
02/12/1978 21:29:43 02/12/1978 21:29:43 FD 1C  0  0 31  1  1     21 mavlink_global_position_int_t time_boot_ms 1889613 lat 0 lon 0 alt 0 relative_alt 14 vx 0 vy 0 vz 1 hdg 33313  sig  Len 40 crc16 42061
02/12/1978 21:29:43 FD 1F  0  0 32  1  1      1 mavlink_sys_status_t onboard_control_sensors_present 1467087887 onboard_control_sensors_enabled 1365359631 onboard_control_sensors_health 1467071503 load 568 voltage_battery 0 current_battery -1 drop_rate_comm 0 errors_comm 0 errors_count1 0 errors_count2 0 errors_count3 0 errors_count4 0 battery_remaining -1  sig  Len 43 crc16 36932
02/12/1978 21:29:43 FD  5  0  0 33  1  1     7D mavlink_power_status_t Vcc 5256 Vservo 55 flags 2  sig  Len 17 crc16 28123
02/12/1978 21:29:43 FD  6  0  0 34  1  1     98 mavlink_meminfo_t brkval 0 freemem 40832 freemem32 40832  sig  Len 18 crc16 51743
02/12/1978 21:29:43 FD 16  0  0 35  1  1     3E mavlink_nav_controller_output_t nav_roll 6,587491E-05 nav_pitch -9,545832E-05 alt_error 0 aspd_error 0 xtrack_error 0 nav_bearing -26 target_bearing 0 wp_dist 0  sig  Len 34 crc16 52071
02/12/1978 21:29:43 FD  1  0  0 36  1  1     2A mavlink_mission_current_t seq 0 total 0 mission_state 0 mission_mode 0  sig  Len 13 crc16 14505
02/12/1978 21:29:43 FD  C  0  0 37  1  1     24 mavlink_servo_output_raw_t time_usec 1889616460 servo1_raw 1000 servo2_raw 1000 servo3_raw 1000 servo4_raw 1000 servo5_raw 0 servo6_raw 0 servo7_raw 0 servo8_raw 0 port 0 servo9_raw 0 servo10_raw 0 servo11_raw 0 servo12_raw 0 servo13_raw 0 servo14_raw 0 servo15_raw 0 servo16_raw 0  sig  Len 24 crc16 19689
02/12/1978 21:29:43 FD 1C  0  0 4B  1  1     21 mavlink_global_position_int_t time_boot_ms 1895113 lat 0 lon 0 alt 0 relative_alt -16 vx 0 vy 0 vz 0 hdg 33308  sig  Len 40 crc16 24657
02/12/1978 21:29:43 FD 1C  0  0 E4  1  1     21 mavlink_global_position_int_t time_boot_ms 1898114 lat 0 lon 0 alt 0 relative_alt -39 vx 0 vy 0 vz 0 hdg 33305  sig  Len 40 crc16 10746
02/12/1978 21:29:43 FD 1F  0  0 FE  1  1      1 mavlink_sys_status_t onboard_control_sensors_present 1467087887 onboard_control_sensors_enabled 1365359631 onboard_control_sensors_health 1467071503 load 579 voltage_battery 0 current_battery -1 drop_rate_comm 0 errors_comm 0 errors_count1 0 errors_count2 0 errors_count3 0 errors_count4 0 battery_remaining -1  sig  Len 43 crc16 4050
02/12/1978 21:29:43 FD  5  0  0 FF  1  1     7D mavlink_power_status_t Vcc 5254 Vservo 67 flags 2  sig  Len 17 crc16 35562
02/12/1978 21:29:43 FD  6  0  0  0  1  1     98 mavlink_meminfo_t brkval 0 freemem 42352 freemem32 42352  sig  Len 18 crc16 64455
02/12/1978 21:29:43 FD 16  0  0  1  1  1     3E mavlink_nav_controller_output_t nav_roll 6,587488E-05 nav_pitch -9,545829E-05 alt_error 0 aspd_error 0 xtrack_error 0 nav_bearing -26 target_bearing 0 wp_dist 0  sig  Len 34 crc16 25000
02/12/1978 21:29:43 FD  1  0  0  2  1  1     2A mavlink_mission_current_t seq 0 total 0 mission_state 0 mission_mode 0  sig  Len 13 crc16 50175
02/12/1978 21:29:43 FD  C  0  0  3  1  1     24 mavlink_servo_output_raw_t time_usec 1898617522 servo1_raw 1100 servo2_raw 1100 servo3_raw 1100 servo4_raw 1100 servo5_raw 0 servo6_raw 0 servo7_raw 0 servo8_raw 0 port 0 servo9_raw 0 servo10_raw 0 servo11_raw 0 servo12_raw 0 servo13_raw 0 servo14_raw 0 servo15_raw 0 servo16_raw 0  sig  Len 24 crc16 16951
02/12/1978 21:29:43 FD 1C  0  0 17  1  1     21 mavlink_global_position_int_t time_boot_ms 1899114 lat 0 lon 0 alt 0 relative_alt -129 vx 0 vy 0 vz 1 hdg 33305  sig  Len 40 crc16 17216
02/12/1978 21:29:43 FD 1F  0  0 18  1  1      1 mavlink_sys_status_t onboard_control_sensors_present 1467087887 onboard_control_sensors_enabled 1365359631 onboard_control_sensors_health 1467071503 load 572 voltage_battery 0 current_battery -1 drop_rate_comm 0 errors_comm 0 errors_count1 0 errors_count2 0 errors_count3 0 errors_count4 0 battery_remaining -1  sig  Len 43 crc16 9982
02/12/1978 21:29:43 FD  5  0  0 19  1  1     7D mavlink_power_status_t Vcc 5256 Vservo 55 flags 2  sig  Len 17 crc16 20028
02/12/1978 21:29:43 FD  6  0  0 1A  1  1     98 mavlink_meminfo_t brkval 0 freemem 42352 freemem32 42352  sig  Len 18 crc16 34597
02/12/1978 21:29:43 FD 16  0  0 1B  1  1     3E mavlink_nav_controller_output_t nav_roll 6,587491E-05 nav_pitch -9,545833E-05 alt_error 0 aspd_error 0 xtrack_error 0 nav_bearing -26 target_bearing 0 wp_dist 0  sig  Len 34 crc16 36950
02/12/1978 21:29:43 FD  1  0  0 1C  1  1     2A mavlink_mission_current_t seq 0 total 0 mission_state 0 mission_mode 0  sig  Len 13 crc16 43146
02/12/1978 21:29:43 FD  C  0  0 1D  1  1     24 mavlink_servo_output_raw_t time_usec 1899117388 servo1_raw 1100 servo2_raw 1100 servo3_raw 1100 servo4_raw 1100 servo5_raw 0 servo6_raw 0 servo7_raw 0 servo8_raw 0 port 0 servo9_raw 0 servo10_raw 0 servo11_raw 0 servo12_raw 0 servo13_raw 0 servo14_raw 0 servo15_raw 0 servo16_raw 0  sig  Len 24 crc16 16504
02/12/1978 21:29:43 FD 2A  0  0 1E  1  1     41 mavlink_rc_channels_t time_boot_ms 1899119 chan1_raw 1495 chan2_raw 1495 chan3_raw 1390 chan4_raw 1495 chan5_raw 1495 chan6_raw 1495 chan7_raw 982 chan8_raw 2006 chan9_raw 1495 chan10_raw 1495 chan11_raw 1495 chan12_raw 1495 chan13_raw 1495 chan14_raw 1495 chan15_raw 1495 chan16_raw 1495 chan17_raw 0 chan18_raw 0 chancount 16 rssi 255  sig  Len 54 crc16 14992
02/12/1978 21:29:43 FD 1D  0  0 1F  1  1     1B mavlink_raw_imu_t time_usec 1899119919 xacc 8 yacc 53 zacc -999 xgyro 7 ygyro 2 zgyro 2 xmag 165 ymag 69 zmag 338 id 0 temperature 5172  sig  Len 41 crc16 1908
02/12/1978 21:29:43 FD 18  0  0 20  1  1     74 mavlink_scaled_imu2_t time_boot_ms 1899119 xacc 5 yacc 41 zacc -979 xgyro 18 ygyro -7 zgyro 0 xmag 134 ymag 119 zmag 351 temperature 5017  sig  Len 36 crc16 47015
02/12/1978 21:29:43 FD 18  0  0 21  1  1     81 mavlink_scaled_imu3_t time_boot_ms 1899120 xacc -1 yacc 41 zacc -998 xgyro 5 ygyro 0 zgyro 2 xmag 0 ymag 0 zmag 0 temperature 4699  sig  Len 36 crc16 52366
02/12/1978 21:29:43 FD  E  0  0 22  1  1     1D mavlink_scaled_pressure_t time_boot_ms 1899120 press_abs 964,7909 press_diff 0 temperature 4893 temperature_press_diff 0  sig  Len 26 crc16 54273
02/12/1978 21:29:43 FD  E  0  0 23  1  1     89 mavlink_scaled_pressure2_t time_boot_ms 1899120 press_abs 965,8491 press_diff 0 temperature 4432 temperature_press_diff 0  sig  Len 26 crc16 22270
01/01/1970 1:00:00 01/01/1970 1:00:00 FD 1C  0  0 E3  1  1     21 mavlink_global_position_int_t time_boot_ms 1908112 lat 0 lon 0 alt 0 relative_alt -163 vx 2 vy 1 vz 0 hdg 33302  sig  Len 40 crc16 64037
01/01/1970 1:00:00 FD 1F  0  0 E4  1  1      1 mavlink_sys_status_t onboard_control_sensors_present 1467087887 onboard_control_sensors_enabled 1365359631 onboard_control_sensors_health 1467071503 load 575 voltage_battery 0 current_battery -1 drop_rate_comm 0 errors_comm 0 errors_count1 0 errors_count2 0 errors_count3 0 errors_count4 0 battery_remaining -1  sig  Len 43 crc16 47057
01/01/1970 1:00:00 FD  5  0  0 E5  1  1     7D mavlink_power_status_t Vcc 5256 Vservo 50 flags 2  sig  Len 17 crc16 59449
01/01/1970 1:00:00 FD  6  0  0 E6  1  1     98 mavlink_meminfo_t brkval 0 freemem 42352 freemem32 42352  sig  Len 18 crc16 63098
01/01/1970 1:00:00 FD 16  0  0 E7  1  1     3E mavlink_nav_controller_output_t nav_roll 6,587496E-05 nav_pitch -9,545842E-05 alt_error 0 aspd_error 0 xtrack_error 0 nav_bearing -26 target_bearing 0 wp_dist 0  sig  Len 34 crc16 48948
01/01/1970 1:00:00 FD  1  0  0 E8  1  1     2A mavlink_mission_current_t seq 0 total 0 mission_state 0 mission_mode 0  sig  Len 13 crc16 64975
01/01/1970 1:00:00 FD  C  0  0 E9  1  1     24 mavlink_servo_output_raw_t time_usec 1908115731 servo1_raw 1100 servo2_raw 1100 servo3_raw 1100 servo4_raw 1100 servo5_raw 0 servo6_raw 0 servo7_raw 0 servo8_raw 0 port 0 servo9_raw 0 servo10_raw 0 servo11_raw 0 servo12_raw 0 servo13_raw 0 servo14_raw 0 servo15_raw 0 servo16_raw 0  sig  Len 24 crc16 31922
01/01/1970 1:00:00 FD 2A  0  0 EA  1  1     41 mavlink_rc_channels_t time_boot_ms 1908115 chan1_raw 1495 chan2_raw 1495 chan3_raw 1390 chan4_raw 1495 chan5_raw 1495 chan6_raw 1495 chan7_raw 982 chan8_raw 2006 chan9_raw 1495 chan10_raw 1495 chan11_raw 1495 chan12_raw 1495 chan13_raw 1495 chan14_raw 1495 chan15_raw 1495 chan16_raw 1495 chan17_raw 0 chan18_raw 0 chancount 16 rssi 255  sig  Len 54 crc16 51780
01/01/1970 1:00:00 FD 1D  0  0 EB  1  1     1B mavlink_raw_imu_t time_usec 1908115823 xacc 10 yacc 55 zacc -1000 xgyro 0 ygyro 2 zgyro 3 xmag 165 ymag 68 zmag 337 id 0 temperature 5171  sig  Len 41 crc16 62727
01/01/1970 1:00:00 FD 18  0  0 EC  1  1     74 mavlink_scaled_imu2_t time_boot_ms 1908115 xacc 8 yacc 52 zacc -975 xgyro 14 ygyro -8 zgyro -4 xmag 131 ymag 119 zmag 360 temperature 5017  sig  Len 36 crc16 30652
01/01/1970 1:00:00 FD 18  0  0 ED  1  1     81 mavlink_scaled_imu3_t time_boot_ms 1908115 xacc -1 yacc 43 zacc -997 xgyro 1 ygyro 0 zgyro 1 xmag 0 ymag 0 zmag 0 temperature 4697  sig  Len 36 crc16 63471
01/01/1970 1:00:00 FD  E  0  0 EE  1  1     1D mavlink_scaled_pressure_t time_boot_ms 1908115 press_abs 964,7943 press_diff 0 temperature 4893 temperature_press_diff 0  sig  Len 26 crc16 52718
01/01/1970 1:00:00 FD  E  0  0 EF  1  1     89 mavlink_scaled_pressure2_t time_boot_ms 1908116 press_abs 965,8369 press_diff 0 temperature 4432 temperature_press_diff 0  sig  Len 26 crc16 51742
01/01/1970 1:00:00 FD 14  0  0 A9  1  1     F1 mavlink_vibration_t time_usec 1911625033 vibration_x 0,0415712 vibration_y 0,02669436 vibration_z 0,04779085 clipping_0 0 clipping_1 0 clipping_2 0  sig  Len 32 crc16 12357
01/01/1970 1:00:00 FD 1C  0  0 AA  1  1     1E mavlink_attitude_t time_boot_ms 1911715 roll 0,006433178 pitch 0,001100168 yaw -0,4711165 rollspeed 0,001557823 pitchspeed 0,0002595757 yawspeed -0,0008096793  sig  Len 40 crc16 38992
01/01/1970 1:00:00 FD 12  0  0 AB  1  1     4A mavlink_vfr_hud_t airspeed 0 groundspeed 0,04476452 alt 0 climb 0,008593289 heading 333 throttle 0  sig  Len 30 crc16 60987
01/01/1970 1:00:00 FD 10  0  0 AC  1  1     B2 mavlink_ahrs2_t roll 0,005891306 pitch 0,001904161 yaw -0,4795935 altitude 0,21 lat 0 lng 0  sig  Len 28 crc16 22073
01/01/1970 1:00:00 FD 1F  0  0 7E  1  1      1 mavlink_sys_status_t onboard_control_sensors_present 1467087887 onboard_control_sensors_enabled 1365359631 onboard_control_sensors_health 1467071503 load 579 voltage_battery 0 current_battery -1 drop_rate_comm 0 errors_comm 0 errors_count1 0 errors_count2 0 errors_count3 0 errors_count4 0 battery_remaining -1  sig  Len 43 crc16 55029
01/01/1970 1:00:00 FD  5  0  0 7F  1  1     7D mavlink_power_status_t Vcc 5246 Vservo 60 flags 2  sig  Len 17 crc16 11629
01/01/1970 1:00:00 FD  6  0  0 80  1  1     98 mavlink_meminfo_t brkval 0 freemem 42352 freemem32 42352  sig  Len 18 crc16 15717
01/01/1970 1:00:00 FD 16  0  0 81  1  1     3E mavlink_nav_controller_output_t nav_roll 6,587459E-05 nav_pitch -9,545813E-05 alt_error 0 aspd_error 0 xtrack_error 0 nav_bearing -43 target_bearing 0 wp_dist 0  sig  Len 34 crc16 27506
01/01/1970 1:00:00 FD  1  0  0 82  1  1     2A mavlink_mission_current_t seq 0 total 0 mission_state 0 mission_mode 0  sig  Len 13 crc16 2077
01/01/1970 1:00:00 FD  C  0  0 83  1  1     24 mavlink_servo_output_raw_t time_usec 1916116089 servo1_raw 1100 servo2_raw 1100 servo3_raw 1100 servo4_raw 1100 servo5_raw 0 servo6_raw 0 servo7_raw 0 servo8_raw 0 port 0 servo9_raw 0 servo10_raw 0 servo11_raw 0 servo12_raw 0 servo13_raw 0 servo14_raw 0 servo15_raw 0 servo16_raw 0  sig  Len 24 crc16 8845
01/01/1970 1:00:00 FD 2A  0  0 50  1  1     41 mavlink_rc_channels_t time_boot_ms 1920116 chan1_raw 1495 chan2_raw 1495 chan3_raw 1390 chan4_raw 1495 chan5_raw 1495 chan6_raw 1495 chan7_raw 982 chan8_raw 2006 chan9_raw 1495 chan10_raw 1495 chan11_raw 1495 chan12_raw 1495 chan13_raw 1495 chan14_raw 1495 chan15_raw 1495 chan16_raw 1495 chan17_raw 0 chan18_raw 0 chancount 16 rssi 255  sig  Len 54 crc16 46282
01/01/1970 1:00:00 FD 14  0  0 75  1  1     F1 mavlink_vibration_t time_usec 1920623125 vibration_x 0,2239635 vibration_y 0,2901401 vibration_z 0,1945269 clipping_0 0 clipping_1 0 clipping_2 0  sig  Len 32 crc16 60723
01/01/1970 1:00:00 FD 1C  0  0 76  1  1     1E mavlink_attitude_t time_boot_ms 1920713 roll -0,5989431 pitch -0,2527837 yaw -0,2036555 rollspeed 1,895982 pitchspeed 0,317618 yawspeed 1,018443  sig  Len 40 crc16 36980
01/01/1970 1:00:00 FD 12  0  0 77  1  1     4A mavlink_vfr_hud_t airspeed 0 groundspeed 0,2580906 alt 0 climb -0,1281361 heading 348 throttle 0  sig  Len 30 crc16 57080
01/01/1970 1:00:00 FD 10  0  0 78  1  1     B2 mavlink_ahrs2_t roll -0,5755382 pitch -0,2267582 yaw -0,2088857 altitude 0,66 lat 0 lng 0  sig  Len 28 crc16 34340
01/01/1970 1:00:00 FD 1C  0  0  F  1  1     1E mavlink_attitude_t time_boot_ms 1923715 roll -0,03507562 pitch 0,01938938 yaw -0,1509916 rollspeed 0,03607586 pitchspeed 0,06257167 yawspeed 0,01211359  sig  Len 40 crc16 55346
01/01/1970 1:00:00 FD 12  0  0 10  1  1     4A mavlink_vfr_hud_t airspeed 0 groundspeed 0,1471932 alt 0 climb -0,01641185 heading 351 throttle 0  sig  Len 30 crc16 28379
01/01/1970 1:00:00 FD 10  0  0 11  1  1     B2 mavlink_ahrs2_t roll -0,02550837 pitch 0,0376057 yaw -0,1392882 altitude 0,4 lat 0 lng 0  sig  Len 28 crc16 10446
01/01/1970 1:00:00 FD 1C  0  0 62  1  1     21 mavlink_global_position_int_t time_boot_ms 1925613 lat 0 lon 0 alt 0 relative_alt 333 vx 0 vy 7 vz 0 hdg 35119  sig  Len 40 crc16 36475
01/01/1970 1:00:00 FD 1F  0  0 63  1  1      1 mavlink_sys_status_t onboard_control_sensors_present 1467087887 onboard_control_sensors_enabled 1365359631 onboard_control_sensors_health 1467071503 load 569 voltage_battery 0 current_battery -1 drop_rate_comm 0 errors_comm 0 errors_count1 0 errors_count2 0 errors_count3 0 errors_count4 0 battery_remaining -1  sig  Len 43 crc16 61803
01/01/1970 1:00:00 FD  5  0  0 64  1  1     7D mavlink_power_status_t Vcc 5257 Vservo 60 flags 2  sig  Len 17 crc16 27077
01/01/1970 1:00:00 FD  6  0  0 65  1  1     98 mavlink_meminfo_t brkval 0 freemem 42352 freemem32 42352  sig  Len 18 crc16 15919
01/01/1970 1:00:00 FD 16  0  0 66  1  1     3E mavlink_nav_controller_output_t nav_roll 6,587382E-05 nav_pitch -9,545704E-05 alt_error 0 aspd_error 0 xtrack_error 0 nav_bearing -8 target_bearing 0 wp_dist 0  sig  Len 34 crc16 50215
01/01/1970 1:00:00 FD  1  0  0 67  1  1     2A mavlink_mission_current_t seq 0 total 0 mission_state 0 mission_mode 0  sig  Len 13 crc16 34719
01/01/1970 1:00:00 FD  C  0  0 68  1  1     24 mavlink_servo_output_raw_t time_usec 1925615749 servo1_raw 1100 servo2_raw 1100 servo3_raw 1100 servo4_raw 1100 servo5_raw 0 servo6_raw 0 servo7_raw 0 servo8_raw 0 port 0 servo9_raw 0 servo10_raw 0 servo11_raw 0 servo12_raw 0 servo13_raw 0 servo14_raw 0 servo15_raw 0 servo16_raw 0  sig  Len 24 crc16 37296
01/01/1970 1:00:00 FD 2A  0  0 69  1  1     41 mavlink_rc_channels_t time_boot_ms 1925615 chan1_raw 1495 chan2_raw 1495 chan3_raw 1390 chan4_raw 1495 chan5_raw 1495 chan6_raw 1495 chan7_raw 982 chan8_raw 2006 chan9_raw 1495 chan10_raw 1495 chan11_raw 1495 chan12_raw 1495 chan13_raw 1495 chan14_raw 1495 chan15_raw 1495 chan16_raw 1495 chan17_raw 0 chan18_raw 0 chancount 16 rssi 255  sig  Len 54 crc16 60474
01/01/1970 1:00:00 FD 1D  0  0 6A  1  1     1B mavlink_raw_imu_t time_usec 1925617943 xacc 40 yacc 77 zacc -998 xgyro 11 ygyro -27 zgyro -2 xmag 194 ymag 2 zmag 345 id 0 temperature 5170  sig  Len 41 crc16 12915
01/01/1970 1:00:00 FD 18  0  0 6B  1  1     74 mavlink_scaled_imu2_t time_boot_ms 1925618 xacc 35 yacc 69 zacc -968 xgyro 26 ygyro -36 zgyro -1 xmag 160 ymag 49 zmag 367 temperature 5015  sig  Len 36 crc16 22281
01/01/1970 1:00:00 FD 18  0  0 6C  1  1     81 mavlink_scaled_imu3_t time_boot_ms 1925618 xacc 29 yacc 64 zacc -994 xgyro 10 ygyro -30 zgyro -2 xmag 0 ymag 0 zmag 0 temperature 4698  sig  Len 36 crc16 25005
01/01/1970 1:00:00 FD  E  0  0 6D  1  1     1D mavlink_scaled_pressure_t time_boot_ms 1925618 press_abs 964,7414 press_diff 0 temperature 4893 temperature_press_diff 0  sig  Len 26 crc16 60235
01/01/1970 1:00:00 FD  E  0  0 6E  1  1     89 mavlink_scaled_pressure2_t time_boot_ms 1925618 press_abs 965,8099 press_diff 0 temperature 4431 temperature_press_diff 0  sig  Len 26 crc16 23754
01/01/1970 1:00:00 FD 1C  0  0 C8  1  1     21 mavlink_global_position_int_t time_boot_ms 1927613 lat 0 lon 0 alt 0 relative_alt 415 vx 1 vy 1 vz 1 hdg 35149  sig  Len 40 crc16 47128
01/01/1970 1:00:00 FD 1F  0  0 C9  1  1      1 mavlink_sys_status_t onboard_control_sensors_present 1467087887 onboard_control_sensors_enabled 1365359631 onboard_control_sensors_health 1467071503 load 566 voltage_battery 0 current_battery -1 drop_rate_comm 0 errors_comm 0 errors_count1 0 errors_count2 0 errors_count3 0 errors_count4 0 battery_remaining -1  sig  Len 43 crc16 15819
01/01/1970 1:00:00 FD  5  0  0 CA  1  1     7D mavlink_power_status_t Vcc 5254 Vservo 45 flags 2  sig  Len 17 crc16 775
01/01/1970 1:00:00 FD  6  0  0 CB  1  1     98 mavlink_meminfo_t brkval 0 freemem 42352 freemem32 42352  sig  Len 18 crc16 32171
01/01/1970 1:00:00 FD 16  0  0 CC  1  1     3E mavlink_nav_controller_output_t nav_roll 6,587391E-05 nav_pitch -9,545701E-05 alt_error 0 aspd_error 0 xtrack_error 0 nav_bearing -8 target_bearing 0 wp_dist 0  sig  Len 34 crc16 41741
01/01/1970 1:00:00 FD  1  0  0 CD  1  1     2A mavlink_mission_current_t seq 0 total 0 mission_state 0 mission_mode 0  sig  Len 13 crc16 56414
01/01/1970 1:00:00 FD  C  0  0 CE  1  1     24 mavlink_servo_output_raw_t time_usec 1927615670 servo1_raw 1100 servo2_raw 1100 servo3_raw 1100 servo4_raw 1100 servo5_raw 0 servo6_raw 0 servo7_raw 0 servo8_raw 0 port 0 servo9_raw 0 servo10_raw 0 servo11_raw 0 servo12_raw 0 servo13_raw 0 servo14_raw 0 servo15_raw 0 servo16_raw 0  sig  Len 24 crc16 46164
01/01/1970 1:00:00 FD 2A  0  0 CF  1  1     41 mavlink_rc_channels_t time_boot_ms 1927615 chan1_raw 1495 chan2_raw 1495 chan3_raw 1390 chan4_raw 1495 chan5_raw 1495 chan6_raw 1495 chan7_raw 982 chan8_raw 2006 chan9_raw 1495 chan10_raw 1495 chan11_raw 1495 chan12_raw 1495 chan13_raw 1495 chan14_raw 1495 chan15_raw 1495 chan16_raw 1495 chan17_raw 0 chan18_raw 0 chancount 16 rssi 255  sig  Len 54 crc16 33750
01/01/1970 1:00:00 FD 1D  0  0 D0  1  1     1B mavlink_raw_imu_t time_usec 1927615765 xacc 12 yacc 63 zacc -1004 xgyro 11 ygyro 8 zgyro -13 xmag 205 ymag 6 zmag 337 id 0 temperature 5172  sig  Len 41 crc16 27338
01/01/1970 1:00:00 FD 18  0  0 D1  1  1     74 mavlink_scaled_imu2_t time_boot_ms 1927615 xacc 14 yacc 58 zacc -993 xgyro 23 ygyro 0 zgyro -23 xmag 171 ymag 55 zmag 360 temperature 5014  sig  Len 36 crc16 32789
01/01/1970 1:00:00 FD 18  0  0 D2  1  1     81 mavlink_scaled_imu3_t time_boot_ms 1927617 xacc 1 yacc 53 zacc -1000 xgyro 12 ygyro 5 zgyro -12 xmag 0 ymag 0 zmag 0 temperature 4697  sig  Len 36 crc16 60823
01/01/1970 1:00:00 FD  E  0  0 D3  1  1     1D mavlink_scaled_pressure_t time_boot_ms 1927617 press_abs 964,7325 press_diff 0 temperature 4893 temperature_press_diff 0  sig  Len 26 crc16 29988
01/01/1970 1:00:00 FD  E  0  0 D4  1  1     89 mavlink_scaled_pressure2_t time_boot_ms 1927618 press_abs 965,7993 press_diff 0 temperature 4431 temperature_press_diff 0  sig  Len 26 crc16 14960
01/01/1970 1:00:00 FD 18  0  0 D5  1  1     18 mavlink_gps_raw_int_t time_usec 0 lat 0 lon 0 alt 0 eph 65535 epv 65535 vel 0 cog 0 fix_type 0 satellites_visible 0 alt_ellipsoid 0 h_acc 0 v_acc 0 vel_acc 0 hdg_acc 0 yaw 0  sig  Len 36 crc16 39882
01/01/1970 1:00:00 FD  B  0  0 D6  1  1      2 mavlink_system_time_t time_unix_usec 0 time_boot_ms 1927620  sig  Len 23 crc16 10715
01/01/1970 1:00:00 FD 1C  0  0 D7  1  1     A3 mavlink_ahrs_t omegaIx -0,0008235844 omegaIy -0,001453854 omegaIz -0,001893043 accel_weight 0 renorm_val 0 error_rp 0,01277915 error_yaw 0,008371499  sig  Len 40 crc16 56881
01/01/1970 1:00:00 FD  1  0  0 D8  1  1     88 mavlink_terrain_report_t lat 0 lon 0 terrain_height 0 current_height 0 spacing 0 pending 0 loaded 0  sig  Len 13 crc16 10095
01/01/1970 1:00:00 FD 15  0  0 D9  1  1     C1 mavlink_ekf_status_report_t velocity_variance 0 pos_horiz_variance 0,002925385 pos_vert_variance 0,002207487 compass_variance 0,009760424 terrain_alt_variance 0 flags 167 airspeed_variance 0  sig  Len 33 crc16 53833
01/01/1970 1:00:00 FD 14  0  0 DA  1  1     F1 mavlink_vibration_t time_usec 1927623471 vibration_x 0,04687554 vibration_y 0,03545783 vibration_z 0,05331009 clipping_0 0 clipping_1 0 clipping_2 0  sig  Len 32 crc16 61095
01/01/1970 1:00:00 FD 1C  0  0 DB  1  1     1E mavlink_attitude_t time_boot_ms 1927713 roll -0,000735037 pitch -0,003333739 yaw -0,1486544 rollspeed 0,0261213 pitchspeed -0,005538837 yawspeed -0,001364685  sig  Len 40 crc16 21147
01/01/1970 1:00:00 FD 12  0  0 DC  1  1     4A mavlink_vfr_hud_t airspeed 0 groundspeed 0,01984617 alt 0 climb -0,01567232 heading 351 throttle 0  sig  Len 30 crc16 24235
01/01/1970 1:00:00 FD 10  0  0 DD  1  1     B2 mavlink_ahrs2_t roll 0,003904236 pitch 0,005543341 yaw -0,1317688 altitude 0,34 lat 0 lng 0  sig  Len 28 crc16 35465
01/01/1970 1:00:00 01/01/1970 1:00:00 FD 12  0  0 F6  1  1     4A mavlink_vfr_hud_t airspeed 0 groundspeed 0,01762146 alt 0 climb -0,01117357 heading 351 throttle 0  sig  Len 30 crc16 36165
01/01/1970 1:00:00 FD 10  0  0 F7  1  1     B2 mavlink_ahrs2_t roll 0,008487704 pitch 0,005769101 yaw -0,1239218 altitude 0,23 lat 0 lng 0  sig  Len 28 crc16 63855
01/01/1970 1:00:00 FD 1F  0  0 FC  1  1      1 mavlink_sys_status_t onboard_control_sensors_present 1467087887 onboard_control_sensors_enabled 1365359631 onboard_control_sensors_health 1467071503 load 562 voltage_battery 0 current_battery -1 drop_rate_comm 0 errors_comm 0 errors_count1 0 errors_count2 0 errors_count3 0 errors_count4 0 battery_remaining -1  sig  Len 43 crc16 17669
01/01/1970 1:00:00 FD  5  0  0 FD  1  1     7D mavlink_power_status_t Vcc 5251 Vservo 50 flags 2  sig  Len 17 crc16 55848
01/01/1970 1:00:00 FD  6  0  0 FE  1  1     98 mavlink_meminfo_t brkval 0 freemem 42352 freemem32 42352  sig  Len 18 crc16 33218
01/01/1970 1:00:00 FD 16  0  0 FF  1  1     3E mavlink_nav_controller_output_t nav_roll 6,587382E-05 nav_pitch -9,545701E-05 alt_error 0 aspd_error 0 xtrack_error 0 nav_bearing -8 target_bearing 0 wp_dist 0  sig  Len 34 crc16 42755
01/01/1970 1:00:00 FD  1  0  0  0  1  1     2A mavlink_mission_current_t seq 0 total 0 mission_state 0 mission_mode 0  sig  Len 13 crc16 51344
01/01/1970 1:00:00 FD  C  0  0  1  1  1     24 mavlink_servo_output_raw_t time_usec 1928615755 servo1_raw 1100 servo2_raw 1100 servo3_raw 1100 servo4_raw 1100 servo5_raw 0 servo6_raw 0 servo7_raw 0 servo8_raw 0 port 0 servo9_raw 0 servo10_raw 0 servo11_raw 0 servo12_raw 0 servo13_raw 0 servo14_raw 0 servo15_raw 0 servo16_raw 0  sig  Len 24 crc16 28274
01/01/1970 1:00:00 FD 2A  0  0  2  1  1     41 mavlink_rc_channels_t time_boot_ms 1928615 chan1_raw 1495 chan2_raw 1495 chan3_raw 1390 chan4_raw 1495 chan5_raw 1495 chan6_raw 1495 chan7_raw 982 chan8_raw 2006 chan9_raw 1495 chan10_raw 1495 chan11_raw 1495 chan12_raw 1495 chan13_raw 1495 chan14_raw 1495 chan15_raw 1495 chan16_raw 1495 chan17_raw 0 chan18_raw 0 chancount 16 rssi 255  sig  Len 54 crc16 24735
01/01/1970 1:00:00 FD 1D  0  0  3  1  1     1B mavlink_raw_imu_t time_usec 1928618103 xacc 15 yacc 54 zacc -1003 xgyro 20 ygyro -8 zgyro -3 xmag 204 ymag 9 zmag 337 id 0 temperature 5171  sig  Len 41 crc16 33537
01/01/1970 1:00:00 FD 18  0  0  4  1  1     74 mavlink_scaled_imu2_t time_boot_ms 1928618 xacc 15 yacc 58 zacc -984 xgyro 31 ygyro -11 zgyro -9 xmag 173 ymag 60 zmag 358 temperature 5012  sig  Len 36 crc16 12314
01/01/1970 1:00:00 FD 18  0  0  5  1  1     81 mavlink_scaled_imu3_t time_boot_ms 1928618 xacc 4 yacc 41 zacc -999 xgyro 21 ygyro -9 zgyro -4 xmag 0 ymag 0 zmag 0 temperature 4698  sig  Len 36 crc16 39894
01/01/1970 1:00:00 FD  E  0  0  6  1  1     1D mavlink_scaled_pressure_t time_boot_ms 1928618 press_abs 964,7516 press_diff 0 temperature 4893 temperature_press_diff 0  sig  Len 26 crc16 63456
01/01/1970 1:00:00 FD  E  0  0  7  1  1     89 mavlink_scaled_pressure2_t time_boot_ms 1928618 press_abs 965,8179 press_diff 0 temperature 4431 temperature_press_diff 0  sig  Len 26 crc16 9106
01/01/1970 1:00:00 FD 1C  0  0 62  1  1     21 mavlink_global_position_int_t time_boot_ms 1930613 lat 0 lon 0 alt 0 relative_alt 432 vx 4 vy -5 vz 0 hdg 35187  sig  Len 40 crc16 58549
01/01/1970 1:00:00 FD 1F  0  0 63  1  1      1 mavlink_sys_status_t onboard_control_sensors_present 1467087887 onboard_control_sensors_enabled 1365359631 onboard_control_sensors_health 1467071503 load 572 voltage_battery 0 current_battery -1 drop_rate_comm 0 errors_comm 0 errors_count1 0 errors_count2 0 errors_count3 0 errors_count4 0 battery_remaining -1  sig  Len 43 crc16 19286
01/01/1970 1:00:00 FD  5  0  0 64  1  1     7D mavlink_power_status_t Vcc 5244 Vservo 53 flags 2  sig  Len 17 crc16 17538
01/01/1970 1:00:00 FD  6  0  0 65  1  1     98 mavlink_meminfo_t brkval 0 freemem 42280 freemem32 42280  sig  Len 18 crc16 21580
01/01/1970 1:00:00 FD 16  0  0 66  1  1     3E mavlink_nav_controller_output_t nav_roll 6,587372E-05 nav_pitch -9,545705E-05 alt_error 0 aspd_error 0 xtrack_error 0 nav_bearing -8 target_bearing 0 wp_dist 0  sig  Len 34 crc16 28729
01/01/1970 1:00:00 FD  1  0  0 67  1  1     2A mavlink_mission_current_t seq 0 total 0 mission_state 0 mission_mode 0  sig  Len 13 crc16 34719
01/01/1970 1:00:00 FD  C  0  0 68  1  1     24 mavlink_servo_output_raw_t time_usec 1930615754 servo1_raw 1100 servo2_raw 1100 servo3_raw 1100 servo4_raw 1100 servo5_raw 0 servo6_raw 0 servo7_raw 0 servo8_raw 0 port 0 servo9_raw 0 servo10_raw 0 servo11_raw 0 servo12_raw 0 servo13_raw 0 servo14_raw 0 servo15_raw 0 servo16_raw 0  sig  Len 24 crc16 16769
01/01/1970 1:00:00 FD 2A  0  0 69  1  1     41 mavlink_rc_channels_t time_boot_ms 1930617 chan1_raw 1495 chan2_raw 1495 chan3_raw 1390 chan4_raw 1495 chan5_raw 1495 chan6_raw 1495 chan7_raw 982 chan8_raw 2006 chan9_raw 1495 chan10_raw 1495 chan11_raw 1495 chan12_raw 1495 chan13_raw 1495 chan14_raw 1495 chan15_raw 1495 chan16_raw 1495 chan17_raw 0 chan18_raw 0 chancount 16 rssi 255  sig  Len 54 crc16 63803
01/01/1970 1:00:00 FD 1D  0  0 6A  1  1     1B mavlink_raw_imu_t time_usec 1930618029 xacc 11 yacc 56 zacc -999 xgyro 6 ygyro 26 zgyro 8 xmag 203 ymag 7 zmag 338 id 0 temperature 5171  sig  Len 41 crc16 2958
01/01/1970 1:00:00 FD 18  0  0 6B  1  1     74 mavlink_scaled_imu2_t time_boot_ms 1930618 xacc 13 yacc 62 zacc -974 xgyro 22 ygyro 15 zgyro 2 xmag 167 ymag 62 zmag 357 temperature 5017  sig  Len 36 crc16 38425
01/01/1970 1:00:00 FD 18  0  0 6C  1  1     81 mavlink_scaled_imu3_t time_boot_ms 1930618 xacc 0 yacc 44 zacc -998 xgyro 8 ygyro 25 zgyro 7 xmag 0 ymag 0 zmag 0 temperature 4697  sig  Len 36 crc16 23104
01/01/1970 1:00:00 FD  E  0  0 6D  1  1     1D mavlink_scaled_pressure_t time_boot_ms 1930618 press_abs 964,7307 press_diff 0 temperature 4892 temperature_press_diff 0  sig  Len 26 crc16 55053
01/01/1970 1:00:00 FD  E  0  0 6E  1  1     89 mavlink_scaled_pressure2_t time_boot_ms 1930620 press_abs 965,8357 press_diff 0 temperature 4431 temperature_press_diff 0  sig  Len 26 crc16 56886
01/01/1970 1:00:00 FD 18  0  0 6F  1  1     18 mavlink_gps_raw_int_t time_usec 0 lat 0 lon 0 alt 0 eph 65535 epv 65535 vel 0 cog 0 fix_type 0 satellites_visible 0 alt_ellipsoid 0 h_acc 0 v_acc 0 vel_acc 0 hdg_acc 0 yaw 0  sig  Len 36 crc16 49296
01/01/1970 1:00:00 FD  B  0  0 70  1  1      2 mavlink_system_time_t time_unix_usec 0 time_boot_ms 1930621  sig  Len 23 crc16 64098
01/01/1970 1:00:00 FD 1C  0  0 71  1  1     A3 mavlink_ahrs_t omegaIx -0,0008313356 omegaIy -0,001460034 omegaIz -0,001874208 accel_weight 0 renorm_val 0 error_rp 0,005433384 error_yaw 0,004715419  sig  Len 40 crc16 65249
01/01/1970 1:00:00 FD  1  0  0 72  1  1     88 mavlink_terrain_report_t lat 0 lon 0 terrain_height 0 current_height 0 spacing 0 pending 0 loaded 0  sig  Len 13 crc16 31918
01/01/1970 1:00:00 FD 15  0  0 73  1  1     C1 mavlink_ekf_status_report_t velocity_variance 0 pos_horiz_variance 0,0007472184 pos_vert_variance 0,004221562 compass_variance 0,005607952 terrain_alt_variance 0 flags 167 airspeed_variance 0  sig  Len 33 crc16 22728
01/01/1970 1:00:00 FD 14  0  0 74  1  1     F1 mavlink_vibration_t time_usec 1930625771 vibration_x 0,054464 vibration_y 0,04318996 vibration_z 0,06317649 clipping_0 0 clipping_1 0 clipping_2 0  sig  Len 32 crc16 31501
01/01/1970 1:00:00 FD 1C  0  0 75  1  1     1E mavlink_attitude_t time_boot_ms 1930713 roll -0,002833948 pitch 0,003908719 yaw -0,1425225 rollspeed -0,02826408 pitchspeed 0,03733606 yawspeed 0,008516285  sig  Len 40 crc16 64570
01/01/1970 1:00:00 FD 12  0  0 76  1  1     4A mavlink_vfr_hud_t airspeed 0 groundspeed 0,06822896 alt 0 climb -0,00775032 heading 351 throttle 0  sig  Len 30 crc16 38561
01/01/1970 1:00:00 FD 10  0  0 77  1  1     B2 mavlink_ahrs2_t roll -0,0002304833 pitch 0,008442376 yaw -0,1242576 altitude 0,33 lat 0 lng 0  sig  Len 28 crc16 21370
01/01/1970 1:00:00 FD 1F  0  0 7C  1  1      1 mavlink_sys_status_t onboard_control_sensors_present 1467087887 onboard_control_sensors_enabled 1365359631 onboard_control_sensors_health 1467071503 load 594 voltage_battery 0 current_battery -1 drop_rate_comm 0 errors_comm 0 errors_count1 0 errors_count2 0 errors_count3 0 errors_count4 0 battery_remaining -1  sig  Len 43 crc16 51615
01/01/1970 1:00:00 FD  5  0  0 7D  1  1     7D mavlink_power_status_t Vcc 5254 Vservo 53 flags 2  sig  Len 17 crc16 14158
01/01/1970 1:00:00 FD  6  0  0 7E  1  1     98 mavlink_meminfo_t brkval 0 freemem 42352 freemem32 42352  sig  Len 18 crc16 18272
01/01/1970 1:00:00 FD 16  0  0 7F  1  1     3E mavlink_nav_controller_output_t nav_roll 6,587351E-05 nav_pitch -9,545704E-05 alt_error 0 aspd_error 0 xtrack_error 0 nav_bearing -8 target_bearing 0 wp_dist 0  sig  Len 34 crc16 23655
01/01/1970 1:00:00 FD  1  0  0 80  1  1     2A mavlink_mission_current_t seq 0 total 0 mission_state 0 mission_mode 0  sig  Len 13 crc16 882
01/01/1970 1:00:00 FD  C  0  0 81  1  1     24 mavlink_servo_output_raw_t time_usec 1936116803 servo1_raw 1100 servo2_raw 1100 servo3_raw 1100 servo4_raw 1100 servo5_raw 0 servo6_raw 0 servo7_raw 0 servo8_raw 0 port 0 servo9_raw 0 servo10_raw 0 servo11_raw 0 servo12_raw 0 servo13_raw 0 servo14_raw 0 servo15_raw 0 servo16_raw 0  sig  Len 24 crc16 59680
01/01/1970 1:00:00 FD 2A  0  0 82  1  1     41 mavlink_rc_channels_t time_boot_ms 1936116 chan1_raw 1495 chan2_raw 1495 chan3_raw 1390 chan4_raw 1495 chan5_raw 1495 chan6_raw 1495 chan7_raw 982 chan8_raw 2006 chan9_raw 1495 chan10_raw 1495 chan11_raw 1495 chan12_raw 1495 chan13_raw 1495 chan14_raw 1495 chan15_raw 1495 chan16_raw 1495 chan17_raw 0 chan18_raw 0 chancount 16 rssi 255  sig  Len 54 crc16 47514
01/01/1970 1:00:00 FD 1D  0  0 83  1  1     1B mavlink_raw_imu_t time_usec 1936119481 xacc -412 yacc 162 zacc -1036 xgyro -401 ygyro -669 zgyro -285 xmag 288 ymag 12 zmag 272 id 0 temperature 5171  sig  Len 41 crc16 8222
01/01/1970 1:00:00 FD 18  0  0 84  1  1     74 mavlink_scaled_imu2_t time_boot_ms 1936119 xacc -392 yacc 155 zacc -1021 xgyro -385 ygyro -680 zgyro -312 xmag 249 ymag 68 zmag 293 temperature 5017  sig  Len 36 crc16 54833
01/01/1970 1:00:00 FD 18  0  0 85  1  1     81 mavlink_scaled_imu3_t time_boot_ms 1936119 xacc -414 yacc 160 zacc -1048 xgyro -413 ygyro -674 zgyro -276 xmag 0 ymag 0 zmag 0 temperature 4697  sig  Len 36 crc16 53000
01/01/1970 1:00:00 FD  E  0  0 86  1  1     1D mavlink_scaled_pressure_t time_boot_ms 1936119 press_abs 964,7581 press_diff 0 temperature 4892 temperature_press_diff 0  sig  Len 26 crc16 28714
01/01/1970 1:00:00 FD  E  0  0 87  1  1     89 mavlink_scaled_pressure2_t time_boot_ms 1936121 press_abs 965,821 press_diff 0 temperature 4431 temperature_press_diff 0  sig  Len 26 crc16 52630
01/01/1970 1:00:00 FD 18  0  0 88  1  1     18 mavlink_gps_raw_int_t time_usec 0 lat 0 lon 0 alt 0 eph 65535 epv 65535 vel 0 cog 0 fix_type 0 satellites_visible 0 alt_ellipsoid 0 h_acc 0 v_acc 0 vel_acc 0 hdg_acc 0 yaw 0  sig  Len 36 crc16 46695
01/01/1970 1:00:00 FD  B  0  0 89  1  1      2 mavlink_system_time_t time_unix_usec 0 time_boot_ms 1936122  sig  Len 23 crc16 7414
01/01/1970 1:00:00 FD 1C  0  0 A3  1  1     A3 mavlink_ahrs_t omegaIx -0,0008140586 omegaIy -0,001441685 omegaIz -0,001835517 accel_weight 0 renorm_val 0 error_rp 0,07629268 error_yaw 0,02872785  sig  Len 40 crc16 20122
01/01/1970 1:00:00 FD  E  0  0  6  1  1     89 mavlink_scaled_pressure2_t time_boot_ms 1938622 press_abs 965,86 press_diff 0 temperature 4431 temperature_press_diff 0  sig  Len 26 crc16 56056
01/01/1970 1:00:00 FD 18  0  0  7  1  1     18 mavlink_gps_raw_int_t time_usec 0 lat 0 lon 0 alt 0 eph 65535 epv 65535 vel 0 cog 0 fix_type 0 satellites_visible 0 alt_ellipsoid 0 h_acc 0 v_acc 0 vel_acc 0 hdg_acc 0 yaw 0  sig  Len 36 crc16 28798
01/01/1970 1:00:00 FD  B  0  0  8  1  1      2 mavlink_system_time_t time_unix_usec 0 time_boot_ms 1938624  sig  Len 23 crc16 28108
01/01/1970 1:00:00 FD 1C  0  0  9  1  1     A3 mavlink_ahrs_t omegaIx -0,000796293 omegaIy -0,00143059 omegaIz -0,001815451 accel_weight 0 renorm_val 0 error_rp 0,0778766 error_yaw 0,09508596  sig  Len 40 crc16 33847
01/01/1970 1:00:00 FD  1  0  0  A  1  1     88 mavlink_terrain_report_t lat 0 lon 0 terrain_height 0 current_height 0 spacing 0 pending 0 loaded 0  sig  Len 13 crc16 55659
01/01/1970 1:00:00 FD 15  0  0  B  1  1     C1 mavlink_ekf_status_report_t velocity_variance 0 pos_horiz_variance 0,001892357 pos_vert_variance 0,0002176012 compass_variance 0,01138242 terrain_alt_variance 0 flags 167 airspeed_variance 0  sig  Len 33 crc16 46057
01/01/1970 1:00:00 FD 14  0  0  C  1  1     F1 mavlink_vibration_t time_usec 1938627086 vibration_x 0,1635461 vibration_y 0,2561951 vibration_z 0,2285877 clipping_0 0 clipping_1 0 clipping_2 0  sig  Len 32 crc16 65366
01/01/1970 1:00:00 FD 1C  0  0  D  1  1     1E mavlink_attitude_t time_boot_ms 1938714 roll -0,04629236 pitch 0,03095611 yaw -0,2519006 rollspeed 0,1075936 pitchspeed 0,1857876 yawspeed -0,02491729  sig  Len 40 crc16 13867
01/01/1970 1:00:00 FD 12  0  0  E  1  1     4A mavlink_vfr_hud_t airspeed 0 groundspeed 0,05261901 alt 0 climb -0,02922443 heading 345 throttle 0  sig  Len 30 crc16 39068
01/01/1970 1:00:00 FD 10  0  0  F  1  1     B2 mavlink_ahrs2_t roll -0,06824092 pitch 0,02710977 yaw -0,2195076 altitude -0,33 lat 0 lng 0  sig  Len 28 crc16 8389
01/01/1970 1:00:00 FD 1F  0  0 B0  1  1      1 mavlink_sys_status_t onboard_control_sensors_present 1467087887 onboard_control_sensors_enabled 1365359631 onboard_control_sensors_health 1467071503 load 580 voltage_battery 0 current_battery -1 drop_rate_comm 0 errors_comm 0 errors_count1 0 errors_count2 0 errors_count3 0 errors_count4 0 battery_remaining -1  sig  Len 43 crc16 29535
01/01/1970 1:00:00 FD  5  0  0 B1  1  1     7D mavlink_power_status_t Vcc 5257 Vservo 60 flags 2  sig  Len 17 crc16 1438
01/01/1970 1:00:00 FD  6  0  0 B2  1  1     98 mavlink_meminfo_t brkval 0 freemem 41704 freemem32 41704  sig  Len 18 crc16 59624
01/01/1970 1:00:00 FD 16  0  0 B3  1  1     3E mavlink_nav_controller_output_t nav_roll 6,587318E-05 nav_pitch -9,545721E-05 alt_error 0 aspd_error 0 xtrack_error 0 nav_bearing -17 target_bearing 0 wp_dist 0  sig  Len 34 crc16 48097
01/01/1970 1:00:00 FD  1  0  0 B4  1  1     2A mavlink_mission_current_t seq 0 total 0 mission_state 0 mission_mode 0  sig  Len 13 crc16 63524
01/01/1970 1:00:00 FD  C  0  0 B5  1  1     24 mavlink_servo_output_raw_t time_usec 1942116924 servo1_raw 1100 servo2_raw 1100 servo3_raw 1100 servo4_raw 1100 servo5_raw 0 servo6_raw 0 servo7_raw 0 servo8_raw 0 port 0 servo9_raw 0 servo10_raw 0 servo11_raw 0 servo12_raw 0 servo13_raw 0 servo14_raw 0 servo15_raw 0 servo16_raw 0  sig  Len 24 crc16 6950
01/01/1970 1:00:00 FD 2A  0  0 B6  1  1     41 mavlink_rc_channels_t time_boot_ms 1942117 chan1_raw 1495 chan2_raw 1495 chan3_raw 1390 chan4_raw 1495 chan5_raw 1495 chan6_raw 1495 chan7_raw 982 chan8_raw 2006 chan9_raw 1495 chan10_raw 1495 chan11_raw 1495 chan12_raw 1495 chan13_raw 1495 chan14_raw 1495 chan15_raw 1495 chan16_raw 1495 chan17_raw 0 chan18_raw 0 chancount 16 rssi 255  sig  Len 54 crc16 714
01/01/1970 1:00:00 FD 1D  0  0 B7  1  1     1B mavlink_raw_imu_t time_usec 1942117078 xacc 3 yacc 67 zacc -1002 xgyro -39 ygyro 0 zgyro 6 xmag 186 ymag 35 zmag 338 id 0 temperature 5170  sig  Len 41 crc16 5981
01/01/1970 1:00:00 FD 18  0  0 B8  1  1     74 mavlink_scaled_imu2_t time_boot_ms 1942117 xacc 8 yacc 64 zacc -982 xgyro -28 ygyro -9 zgyro -2 xmag 141 ymag 85 zmag 357 temperature 5011  sig  Len 36 crc16 50200
01/01/1970 1:00:00 FD 18  0  0 B9  1  1     81 mavlink_scaled_imu3_t time_boot_ms 1942117 xacc -7 yacc 58 zacc -997 xgyro -39 ygyro 1 zgyro 7 xmag 0 ymag 0 zmag 0 temperature 4697  sig  Len 36 crc16 4250
01/01/1970 1:00:00 FD  E  0  0 BA  1  1     1D mavlink_scaled_pressure_t time_boot_ms 1942119 press_abs 964,7661 press_diff 0 temperature 4892 temperature_press_diff 0  sig  Len 26 crc16 28589
01/01/1970 1:00:00 FD  E  0  0 BB  1  1     89 mavlink_scaled_pressure2_t time_boot_ms 1942119 press_abs 965,869 press_diff 0 temperature 4431 temperature_press_diff 0  sig  Len 26 crc16 32926
01/01/1970 1:00:00 FD 18  0  0 BC  1  1     18 mavlink_gps_raw_int_t time_usec 0 lat 0 lon 0 alt 0 eph 65535 epv 65535 vel 0 cog 0 fix_type 0 satellites_visible 0 alt_ellipsoid 0 h_acc 0 v_acc 0 vel_acc 0 hdg_acc 0 yaw 0  sig  Len 36 crc16 60944
01/01/1970 1:00:00 FD  B  0  0 BD  1  1      2 mavlink_system_time_t time_unix_usec 0 time_boot_ms 1942120  sig  Len 23 crc16 59033
01/01/1970 1:00:00 FD 1F  0  0 C9  1  1      1 mavlink_sys_status_t onboard_control_sensors_present 1467087887 onboard_control_sensors_enabled 1365359631 onboard_control_sensors_health 1467071503 load 584 voltage_battery 0 current_battery -1 drop_rate_comm 0 errors_comm 0 errors_count1 0 errors_count2 0 errors_count3 0 errors_count4 0 battery_remaining -1  sig  Len 43 crc16 60619
01/01/1970 1:00:00 FD  5  0  0 CA  1  1     7D mavlink_power_status_t Vcc 5265 Vservo 60 flags 2  sig  Len 17 crc16 33404
01/01/1970 1:00:00 FD  6  0  0 CB  1  1     98 mavlink_meminfo_t brkval 0 freemem 41704 freemem32 41704  sig  Len 18 crc16 19468
01/01/1970 1:00:00 FD 16  0  0 CC  1  1     3E mavlink_nav_controller_output_t nav_roll 6,58732E-05 nav_pitch -9,545728E-05 alt_error 0 aspd_error 0 xtrack_error 0 nav_bearing -17 target_bearing 0 wp_dist 0  sig  Len 34 crc16 30535
01/01/1970 1:00:00 FD  1  0  0 CD  1  1     2A mavlink_mission_current_t seq 0 total 0 mission_state 0 mission_mode 0  sig  Len 13 crc16 56414
01/01/1970 1:00:00 FD  C  0  0 CE  1  1     24 mavlink_servo_output_raw_t time_usec 1942614709 servo1_raw 1100 servo2_raw 1100 servo3_raw 1100 servo4_raw 1100 servo5_raw 0 servo6_raw 0 servo7_raw 0 servo8_raw 0 port 0 servo9_raw 0 servo10_raw 0 servo11_raw 0 servo12_raw 0 servo13_raw 0 servo14_raw 0 servo15_raw 0 servo16_raw 0  sig  Len 24 crc16 17196
01/01/1970 1:00:00 FD 2A  0  0 CF  1  1     41 mavlink_rc_channels_t time_boot_ms 1942614 chan1_raw 1495 chan2_raw 1495 chan3_raw 1390 chan4_raw 1495 chan5_raw 1495 chan6_raw 1495 chan7_raw 982 chan8_raw 2006 chan9_raw 1495 chan10_raw 1495 chan11_raw 1495 chan12_raw 1495 chan13_raw 1495 chan14_raw 1495 chan15_raw 1495 chan16_raw 1495 chan17_raw 0 chan18_raw 0 chancount 16 rssi 255  sig  Len 54 crc16 19568
01/01/1970 1:00:00 FD 1D  0  0 D0  1  1     1B mavlink_raw_imu_t time_usec 1942614805 xacc 5 yacc 74 zacc -1001 xgyro -8 ygyro 7 zgyro 3 xmag 185 ymag 34 zmag 339 id 0 temperature 5170  sig  Len 41 crc16 41688
01/01/1970 1:00:00 FD 18  0  0 D1  1  1     74 mavlink_scaled_imu2_t time_boot_ms 1942616 xacc 9 yacc 71 zacc -968 xgyro 6 ygyro 0 zgyro -2 xmag 154 ymag 89 zmag 362 temperature 5011  sig  Len 36 crc16 58256
01/01/1970 1:00:00 FD 18  0  0 D2  1  1     81 mavlink_scaled_imu3_t time_boot_ms 1942617 xacc -4 yacc 64 zacc -997 xgyro -5 ygyro 7 zgyro 1 xmag 0 ymag 0 zmag 0 temperature 4696  sig  Len 36 crc16 41953
01/01/1970 1:00:00 FD  E  0  0 D3  1  1     1D mavlink_scaled_pressure_t time_boot_ms 1942617 press_abs 964,7981 press_diff 0 temperature 4891 temperature_press_diff 0  sig  Len 26 crc16 55033
01/01/1970 1:00:00 FD  E  0  0 D4  1  1     89 mavlink_scaled_pressure2_t time_boot_ms 1942617 press_abs 965,8454 press_diff 0 temperature 4430 temperature_press_diff 0  sig  Len 26 crc16 15931
01/01/1970 1:00:00 FD 18  0  0 D5  1  1     18 mavlink_gps_raw_int_t time_usec 0 lat 0 lon 0 alt 0 eph 65535 epv 65535 vel 0 cog 0 fix_type 0 satellites_visible 0 alt_ellipsoid 0 h_acc 0 v_acc 0 vel_acc 0 hdg_acc 0 yaw 0  sig  Len 36 crc16 39882
01/01/1970 1:00:00 FD  B  0  0 D6  1  1      2 mavlink_system_time_t time_unix_usec 0 time_boot_ms 1942620  sig  Len 23 crc16 55081
01/01/1970 1:00:00 FD 1C  0  0 D7  1  1     A3 mavlink_ahrs_t omegaIx -0,0007793964 omegaIy -0,001431299 omegaIz -0,001785212 accel_weight 0 renorm_val 0 error_rp 0,01513736 error_yaw 0,02926869  sig  Len 40 crc16 45982
01/01/1970 1:00:00 FD  1  0  0 D8  1  1     88 mavlink_terrain_report_t lat 0 lon 0 terrain_height 0 current_height 0 spacing 0 pending 0 loaded 0  sig  Len 13 crc16 10095
01/01/1970 1:00:00 FD 15  0  0 D9  1  1     C1 mavlink_ekf_status_report_t velocity_variance 0 pos_horiz_variance 0,001315994 pos_vert_variance 0,006934649 compass_variance 0,007085023 terrain_alt_variance 0 flags 167 airspeed_variance 0  sig  Len 33 crc16 54794
01/01/1970 1:00:00 FD 14  0  0 DA  1  1     F1 mavlink_vibration_t time_usec 1942625040 vibration_x 0,05570428 vibration_y 0,04525422 vibration_z 0,06409219 clipping_0 0 clipping_1 0 clipping_2 0  sig  Len 32 crc16 22104
01/01/1970 1:00:00 FD 1C  0  0 DB  1  1     1E mavlink_attitude_t time_boot_ms 1942714 roll -0,01311632 pitch 0,002367746 yaw -0,3126592 rollspeed 0,004329688 pitchspeed -0,01586082 yawspeed 0,004558736  sig  Len 40 crc16 26875
01/01/1970 1:00:00 FD 12  0  0 DC  1  1     4A mavlink_vfr_hud_t airspeed 0 groundspeed 0,05581195 alt 0 climb -0,0001114558 heading 342 throttle 0  sig  Len 30 crc16 53127
01/01/1970 1:00:00 FD 10  0  0 DD  1  1     B2 mavlink_ahrs2_t roll -0,02329125 pitch -0,002829574 yaw -0,2953542 altitude -0,07 lat 0 lng 0  sig  Len 28 crc16 11401
01/01/1970 1:00:00 FD  E  0  0 3A  1  1     89 mavlink_scaled_pressure2_t time_boot_ms 1944620 press_abs 965,8661 press_diff 0 temperature 4431 temperature_press_diff 0  sig  Len 26 crc16 59192
01/01/1970 1:00:00 FD 18  0  0 3B  1  1     18 mavlink_gps_raw_int_t time_usec 0 lat 0 lon 0 alt 0 eph 65535 epv 65535 vel 0 cog 0 fix_type 0 satellites_visible 0 alt_ellipsoid 0 h_acc 0 v_acc 0 vel_acc 0 hdg_acc 0 yaw 0  sig  Len 36 crc16 12751
01/01/1970 1:00:00 FD  B  0  0 3C  1  1      2 mavlink_system_time_t time_unix_usec 0 time_boot_ms 1944622  sig  Len 23 crc16 57159
01/01/1970 1:00:00 FD 1C  0  0 3D  1  1     A3 mavlink_ahrs_t omegaIx -0,0007713718 omegaIy -0,001436807 omegaIz -0,001773684 accel_weight 0 renorm_val 0 error_rp 0,009523335 error_yaw 0,0208642  sig  Len 40 crc16 27225
01/01/1970 1:00:00 FD  1  0  0 3E  1  1     88 mavlink_terrain_report_t lat 0 lon 0 terrain_height 0 current_height 0 spacing 0 pending 0 loaded 0  sig  Len 13 crc16 8765
01/01/1970 1:00:00 FD 15  0  0 3F  1  1     C1 mavlink_ekf_status_report_t velocity_variance 0 pos_horiz_variance 0,00140445 pos_vert_variance 0,002924632 compass_variance 0,003327261 terrain_alt_variance 0 flags 167 airspeed_variance 0  sig  Len 33 crc16 20561
01/01/1970 1:00:00 FD 14  0  0 40  1  1     F1 mavlink_vibration_t time_usec 1944626931 vibration_x 0,06929127 vibration_y 0,03764186 vibration_z 0,05873581 clipping_0 0 clipping_1 0 clipping_2 0  sig  Len 32 crc16 43163
01/01/1970 1:00:00 FD 1C  0  0 41  1  1     1E mavlink_attitude_t time_boot_ms 1944714 roll -0,007110886 pitch -0,00614142 yaw -0,3222812 rollspeed 0,03577961 pitchspeed 0,02847181 yawspeed 0,001189789  sig  Len 40 crc16 61693
01/01/1970 1:00:00 FD 12  0  0 42  1  1     4A mavlink_vfr_hud_t airspeed 0 groundspeed 0,05694301 alt 0 climb -0,003085176 heading 341 throttle 0  sig  Len 30 crc16 36437
01/01/1970 1:00:00 FD 10  0  0 43  1  1     B2 mavlink_ahrs2_t roll -0,01366867 pitch -0,01114659 yaw -0,3102641 altitude 0,07 lat 0 lng 0  sig  Len 28 crc16 5600
01/01/1970 1:00:00 FD 1F  0  0 62  1  1      1 mavlink_sys_status_t onboard_control_sensors_present 1467087887 onboard_control_sensors_enabled 1365359631 onboard_control_sensors_health 1467071503 load 581 voltage_battery 0 current_battery -1 drop_rate_comm 0 errors_comm 0 errors_count1 0 errors_count2 0 errors_count3 0 errors_count4 0 battery_remaining -1  sig  Len 43 crc16 15390
01/01/1970 1:00:00 FD  5  0  0 63  1  1     7D mavlink_power_status_t Vcc 5257 Vservo 62 flags 2  sig  Len 17 crc16 53803
01/01/1970 1:00:00 FD  6  0  0 64  1  1     98 mavlink_meminfo_t brkval 0 freemem 42352 freemem32 42352  sig  Len 18 crc16 15234
01/01/1970 1:00:00 FD 16  0  0 65  1  1     3E mavlink_nav_controller_output_t nav_roll 6,587322E-05 nav_pitch -9,545732E-05 alt_error 0 aspd_error 0 xtrack_error 0 nav_bearing -18 target_bearing 0 wp_dist 0  sig  Len 34 crc16 63729
01/01/1970 1:00:00 FD  1  0  0 66  1  1     2A mavlink_mission_current_t seq 0 total 0 mission_state 0 mission_mode 0  sig  Len 13 crc16 1568
01/01/1970 1:00:00 FD  C  0  0 67  1  1     24 mavlink_servo_output_raw_t time_usec 1945615049 servo1_raw 1100 servo2_raw 1100 servo3_raw 1100 servo4_raw 1100 servo5_raw 0 servo6_raw 0 servo7_raw 0 servo8_raw 0 port 0 servo9_raw 0 servo10_raw 0 servo11_raw 0 servo12_raw 0 servo13_raw 0 servo14_raw 0 servo15_raw 0 servo16_raw 0  sig  Len 24 crc16 23139
01/01/1970 1:00:00 FD 2A  0  0 68  1  1     41 mavlink_rc_channels_t time_boot_ms 1945615 chan1_raw 1495 chan2_raw 1495 chan3_raw 1390 chan4_raw 1495 chan5_raw 1495 chan6_raw 1495 chan7_raw 982 chan8_raw 2006 chan9_raw 1495 chan10_raw 1495 chan11_raw 1495 chan12_raw 1495 chan13_raw 1495 chan14_raw 1495 chan15_raw 1495 chan16_raw 1495 chan17_raw 0 chan18_raw 0 chancount 16 rssi 255  sig  Len 54 crc16 11030
01/01/1970 1:00:00 FD 1D  0  0 69  1  1     1B mavlink_raw_imu_t time_usec 1945617365 xacc -2 yacc 64 zacc -1011 xgyro -9 ygyro -29 zgyro -24 xmag 184 ymag 40 zmag 337 id 0 temperature 5169  sig  Len 41 crc16 50614
01/01/1970 1:00:00 FD 18  0  0 6A  1  1     74 mavlink_scaled_imu2_t time_boot_ms 1945617 xacc 0 yacc 59 zacc -993 xgyro 1 ygyro -37 zgyro -36 xmag 153 ymag 94 zmag 355 temperature 5013  sig  Len 36 crc16 30595
01/01/1970 1:00:00 FD 18  0  0 6B  1  1     81 mavlink_scaled_imu3_t time_boot_ms 1945617 xacc -12 yacc 53 zacc -1005 xgyro -9 ygyro -31 zgyro -25 xmag 0 ymag 0 zmag 0 temperature 4697  sig  Len 36 crc16 64448
01/01/1970 1:00:00 FD  E  0  0 6C  1  1     1D mavlink_scaled_pressure_t time_boot_ms 1945617 press_abs 964,8017 press_diff 0 temperature 4891 temperature_press_diff 0  sig  Len 26 crc16 11461
01/01/1970 1:00:00 FD  E  0  0 6D  1  1     89 mavlink_scaled_pressure2_t time_boot_ms 1945620 press_abs 965,8513 press_diff 0 temperature 4430 temperature_press_diff 0  sig  Len 26 crc16 26316
01/01/1970 1:00:00 FD 18  0  0 6E  1  1     18 mavlink_gps_raw_int_t time_usec 0 lat 0 lon 0 alt 0 eph 65535 epv 65535 vel 0 cog 0 fix_type 0 satellites_visible 0 alt_ellipsoid 0 h_acc 0 v_acc 0 vel_acc 0 hdg_acc 0 yaw 0  sig  Len 36 crc16 1444
01/01/1970 1:00:00 FD  B  0  0 6F  1  1      2 mavlink_system_time_t time_unix_usec 0 time_boot_ms 1945620  sig  Len 23 crc16 23189
01/01/1970 1:00:00 FD 1C  0  0 70  1  1     A3 mavlink_ahrs_t omegaIx -0,0007682908 omegaIy -0,001439858 omegaIz -0,001768689 accel_weight 0 renorm_val 0 error_rp 0,008415242 error_yaw 0,01695948  sig  Len 40 crc16 4104
01/01/1970 1:00:00 FD  1  0  0 71  1  1     88 mavlink_terrain_report_t lat 0 lon 0 terrain_height 0 current_height 0 spacing 0 pending 0 loaded 0  sig  Len 13 crc16 63102
01/01/1970 1:00:00 FD 15  0  0 72  1  1     C1 mavlink_ekf_status_report_t velocity_variance 0 pos_horiz_variance 0,001471473 pos_vert_variance 0,008490646 compass_variance 0,003320607 terrain_alt_variance 0 flags 167 airspeed_variance 0  sig  Len 33 crc16 59516
01/01/1970 1:00:00 FD 14  0  0 73  1  1     F1 mavlink_vibration_t time_usec 1945623081 vibration_x 0,05182688 vibration_y 0,05023633 vibration_z 0,06183095 clipping_0 0 clipping_1 0 clipping_2 0  sig  Len 32 crc16 38663
01/01/1970 1:00:00 FD 1C  0  0 74  1  1     1E mavlink_attitude_t time_boot_ms 1945714 roll -0,004930422 pitch -0,01136896 yaw -0,329697 rollspeed -0,002429488 pitchspeed -0,001155413 yawspeed -0,0001191364  sig  Len 40 crc16 40338
01/01/1970 1:00:00 FD 12  0  0 75  1  1     4A mavlink_vfr_hud_t airspeed 0 groundspeed 0,05461245 alt 0 climb 0,008531427 heading 341 throttle 0  sig  Len 30 crc16 18263
01/01/1970 1:00:00 FD 10  0  0 76  1  1     B2 mavlink_ahrs2_t roll -0,01017421 pitch -0,01618376 yaw -0,319613 altitude -0,05 lat 0 lng 0  sig  Len 28 crc16 44735
01/01/1970 1:00:00 FD 1D  0  0 9C  1  1     1B mavlink_raw_imu_t time_usec 1946615136 xacc 14 yacc 62 zacc -998 xgyro 40 ygyro 8 zgyro -1 xmag 182 ymag 42 zmag 338 id 0 temperature 5169  sig  Len 41 crc16 25817
01/01/1970 1:00:00 FD 18  0  0 9D  1  1     74 mavlink_scaled_imu2_t time_boot_ms 1946615 xacc 11 yacc 57 zacc -967 xgyro 50 ygyro -2 zgyro -2 xmag 146 ymag 92 zmag 355 temperature 5014  sig  Len 36 crc16 28379
01/01/1970 1:00:00 FD 18  0  0 9E  1  1     81 mavlink_scaled_imu3_t time_boot_ms 1946615 xacc 1 yacc 50 zacc -996 xgyro 40 ygyro 7 zgyro -1 xmag 0 ymag 0 zmag 0 temperature 4696  sig  Len 36 crc16 28994
01/01/1970 1:00:00 FD  E  0  0 9F  1  1     1D mavlink_scaled_pressure_t time_boot_ms 1946615 press_abs 964,7687 press_diff 0 temperature 4891 temperature_press_diff 0  sig  Len 26 crc16 11428
01/01/1970 1:00:00 FD  E  0  0 A0  1  1     89 mavlink_scaled_pressure2_t time_boot_ms 1946617 press_abs 965,8665 press_diff 0 temperature 4430 temperature_press_diff 0  sig  Len 26 crc16 32202
01/01/1970 1:00:00 FD 18  0  0 A1  1  1     18 mavlink_gps_raw_int_t time_usec 0 lat 0 lon 0 alt 0 eph 65535 epv 65535 vel 0 cog 0 fix_type 0 satellites_visible 0 alt_ellipsoid 0 h_acc 0 v_acc 0 vel_acc 0 hdg_acc 0 yaw 0  sig  Len 36 crc16 3469
01/01/1970 1:00:00 FD  B  0  0 A2  1  1      2 mavlink_system_time_t time_unix_usec 0 time_boot_ms 1946617  sig  Len 23 crc16 14579
01/01/1970 1:00:00 FD 1C  0  0 A3  1  1     A3 mavlink_ahrs_t omegaIx -0,0007661731 omegaIy -0,001443934 omegaIz -0,00176522 accel_weight 0 renorm_val 0 error_rp 0,007886823 error_yaw 0,0141202  sig  Len 40 crc16 7175
01/01/1970 1:00:00 FD  1  0  0 A4  1  1     88 mavlink_terrain_report_t lat 0 lon 0 terrain_height 0 current_height 0 spacing 0 pending 0 loaded 0  sig  Len 13 crc16 38004
01/01/1970 1:00:00 FD 15  0  0 A5  1  1     C1 mavlink_ekf_status_report_t velocity_variance 0 pos_horiz_variance 0,001508952 pos_vert_variance 0,007137419 compass_variance 0,002130509 terrain_alt_variance 0 flags 167 airspeed_variance 0  sig  Len 33 crc16 26637
01/01/1970 1:00:00 FD 14  0  0 A6  1  1     F1 mavlink_vibration_t time_usec 1946622766 vibration_x 0,05331345 vibration_y 0,04221743 vibration_z 0,06153006 clipping_0 0 clipping_1 0 clipping_2 0  sig  Len 32 crc16 26361
01/01/1970 1:00:00 FD 1C  0  0 A7  1  1     1E mavlink_attitude_t time_boot_ms 1946715 roll 0,00226542 pitch 0,0001089731 yaw -0,3305951 rollspeed 0,0008056582 pitchspeed 0,01725493 yawspeed -0,001722755  sig  Len 40 crc16 17120
01/01/1970 1:00:00 FD 12  0  0 A8  1  1     4A mavlink_vfr_hud_t airspeed 0 groundspeed 0,04943081 alt 0 climb 0,007597303 heading 341 throttle 0  sig  Len 30 crc16 2976
01/01/1970 1:00:00 FD 10  0  0 A9  1  1     B2 mavlink_ahrs2_t roll -0,001778387 pitch -0,004429282 yaw -0,3223341 altitude -0,14 lat 0 lng 0  sig  Len 28 crc16 47015
01/01/1970 1:00:00 FD  9  0  0 AA  1  1      0 mavlink_heartbeat_t custom_mode 2 type 2 autopilot 3 base_mode 209 system_status 3 mavlink_version 3  sig  Len 21 crc16 52259
01/01/1970 1:00:00 FD  9  0  0 AB  1  1     4D mavlink_command_ack_t command 185 result 0 progress 0 result_param2 0 target_system 255 target_component 0  sig  Len 21 crc16 31673
01/01/1970 1:00:00 FD 19  0  0 AC  1  1     16 mavlink_param_value_t param_value 0,6875 param_count 959 param_index 65535 param_id MOT_THST_HOVER param_type 9  sig  Len 37 crc16 20787
01/01/1970 1:00:00 FD 1C  0  0 AD  1  1     1E mavlink_attitude_t time_boot_ms 1946964 roll 0,0008851252 pitch 0,001746459 yaw -0,3297322 rollspeed 0,01259235 pitchspeed -0,01445566 yawspeed -0,01261922  sig  Len 40 crc16 58784
01/01/1970 1:00:00 FD 12  0  0 AE  1  1     4A mavlink_vfr_hud_t airspeed 0 groundspeed 0,04630557 alt 0 climb 0,01066795 heading 341 throttle 0  sig  Len 30 crc16 15231
01/01/1970 1:00:00 FD 10  0  0 AF  1  1     B2 mavlink_ahrs2_t roll -0,002786422 pitch -0,00277715 yaw -0,3220323 altitude -0,09999999 lat 0 lng 0  sig  Len 28 crc16 43337
01/01/1970 1:00:00 FD 1C  0  0 B0  1  1     21 mavlink_global_position_int_t time_boot_ms 1947112 lat 0 lon 0 alt 0 relative_alt -209 vx -3 vy 0 vz 0 hdg 34099  sig  Len 40 crc16 22558
01/01/1970 1:00:00 FD 1F  0  0 B1  1  1      1 mavlink_sys_status_t onboard_control_sensors_present 1467087887 onboard_control_sensors_enabled 1365359631 onboard_control_sensors_health 1467071503 load 567 voltage_battery 0 current_battery -1 drop_rate_comm 0 errors_comm 0 errors_count1 0 errors_count2 0 errors_count3 0 errors_count4 0 battery_remaining -1  sig  Len 43 crc16 30844
01/01/1970 1:00:00 FD  5  0  0 B2  1  1     7D mavlink_power_status_t Vcc 5251 Vservo 60 flags 2  sig  Len 17 crc16 43902
01/01/1970 1:00:00 FD  6  0  0 B3  1  1     98 mavlink_meminfo_t brkval 0 freemem 42352 freemem32 42352  sig  Len 18 crc16 56546
01/01/1970 1:00:00 FD 16  0  0 B4  1  1     3E mavlink_nav_controller_output_t nav_roll 6,58732E-05 nav_pitch -9,545728E-05 alt_error 0 aspd_error 0 xtrack_error 0 nav_bearing -19 target_bearing 0 wp_dist 0  sig  Len 34 crc16 45231
01/01/1970 1:00:00 FD  1  0  0 B5  1  1     2A mavlink_mission_current_t seq 0 total 0 mission_state 0 mission_mode 0  sig  Len 13 crc16 31131
01/01/1970 1:00:00 FD  C  0  0 B6  1  1     24 mavlink_servo_output_raw_t time_usec 1947112949 servo1_raw 1000 servo2_raw 1000 servo3_raw 1000 servo4_raw 1000 servo5_raw 0 servo6_raw 0 servo7_raw 0 servo8_raw 0 port 0 servo9_raw 0 servo10_raw 0 servo11_raw 0 servo12_raw 0 servo13_raw 0 servo14_raw 0 servo15_raw 0 servo16_raw 0  sig  Len 24 crc16 37997
01/01/1970 1:00:00 FD 2A  0  0 B7  1  1     41 mavlink_rc_channels_t time_boot_ms 1947114 chan1_raw 1495 chan2_raw 1495 chan3_raw 998 chan4_raw 1495 chan5_raw 1495 chan6_raw 1495 chan7_raw 982 chan8_raw 982 chan9_raw 1495 chan10_raw 1495 chan11_raw 1495 chan12_raw 1495 chan13_raw 1495 chan14_raw 1495 chan15_raw 1495 chan16_raw 1495 chan17_raw 0 chan18_raw 0 chancount 16 rssi 255  sig  Len 54 crc16 44479
01/01/1970 1:00:00 FD 1D  0  0 B8  1  1     1B mavlink_raw_imu_t time_usec 1947115035 xacc 3 yacc 63 zacc -1000 xgyro 0 ygyro 1 zgyro -4 xmag 182 ymag 42 zmag 338 id 0 temperature 5170  sig  Len 41 crc16 18413
01/01/1970 1:00:00 FD 18  0  0 B9  1  1     74 mavlink_scaled_imu2_t time_boot_ms 1947115 xacc 0 yacc 51 zacc -970 xgyro 13 ygyro -3 zgyro -12 xmag 148 ymag 95 zmag 360 temperature 5014  sig  Len 36 crc16 12632
01/01/1970 1:00:00 FD 18  0  0 BA  1  1     81 mavlink_scaled_imu3_t time_boot_ms 1947115 xacc -7 yacc 51 zacc -995 xgyro 1 ygyro 0 zgyro -6 xmag 0 ymag 0 zmag 0 temperature 4695  sig  Len 36 crc16 11739
01/01/1970 1:00:00 FD  E  0  0 BB  1  1     1D mavlink_scaled_pressure_t time_boot_ms 1947117 press_abs 964,799 press_diff 0 temperature 4892 temperature_press_diff 0  sig  Len 26 crc16 58451
01/01/1970 1:00:00 FD  E  0  0 BC  1  1     89 mavlink_scaled_pressure2_t time_boot_ms 1947117 press_abs 965,8688 press_diff 0 temperature 4430 temperature_press_diff 0  sig  Len 26 crc16 3457
01/01/1970 1:00:00 FD 18  0  0 BD  1  1     18 mavlink_gps_raw_int_t time_usec 0 lat 0 lon 0 alt 0 eph 65535 epv 65535 vel 0 cog 0 fix_type 0 satellites_visible 0 alt_ellipsoid 0 h_acc 0 v_acc 0 vel_acc 0 hdg_acc 0 yaw 0  sig  Len 36 crc16 11044
01/01/1970 1:00:00 FD  B  0  0 BE  1  1      2 mavlink_system_time_t time_unix_usec 0 time_boot_ms 1947117  sig  Len 23 crc16 44296
01/01/1970 1:00:00 FD 1C  0  0 BF  1  1     A3 mavlink_ahrs_t omegaIx -0,0007613557 omegaIy -0,001452454 omegaIz -0,001763076 accel_weight 0 renorm_val 0 error_rp 0,007418899 error_yaw 0,01200189  sig  Len 40 crc16 45806
01/01/1970 1:00:00 FD  1  0  0 C0  1  1     88 mavlink_terrain_report_t lat 0 lon 0 terrain_height 0 current_height 0 spacing 0 pending 0 loaded 0  sig  Len 13 crc16 20907
01/01/1970 1:00:00 FD 15  0  0 C1  1  1     C1 mavlink_ekf_status_report_t velocity_variance 0 pos_horiz_variance 0,001641633 pos_vert_variance 0,01323581 compass_variance 0,00560282 terrain_alt_variance 0 flags 167 airspeed_variance 0  sig  Len 33 crc16 51746
01/01/1970 1:00:00 FD 14  0  0 C2  1  1     F1 mavlink_vibration_t time_usec 1947122500 vibration_x 0,08439377 vibration_y 0,04554012 vibration_z 0,05253589 clipping_0 0 clipping_1 0 clipping_2 0  sig  Len 32 crc16 19908
01/01/1970 1:00:00 FD 1C  0  0 C3  1  1     1E mavlink_attitude_t time_boot_ms 1947214 roll 0,001681212 pitch -0,0008412842 yaw -0,3316385 rollspeed 0,01512238 pitchspeed 0,03031801 yawspeed 0,002595615  sig  Len 40 crc16 49863
01/01/1970 1:00:00 FD 12  0  0 C4  1  1     4A mavlink_vfr_hud_t airspeed 0 groundspeed 0,03397963 alt 0 climb 0,004736632 heading 341 throttle 0  sig  Len 30 crc16 18096
01/01/1970 1:00:00 FD  C  0  0 C5  1  1     B2 mavlink_ahrs2_t roll -0,00180406 pitch -0,004966288 yaw -0,3245214 altitude 0 lat 0 lng 0  sig  Len 24 crc16 12450
01/01/1970 1:00:00 FD 1C  0  0 C6  1  1     1E mavlink_attitude_t time_boot_ms 1947464 roll 0,007495165 pitch 0,005293616 yaw -0,3375841 rollspeed 0,07839336 pitchspeed 0,03495283 yawspeed -0,063641  sig  Len 40 crc16 46632
01/01/1970 1:00:00 FD 12  0  0 C7  1  1     4A mavlink_vfr_hud_t airspeed 0 groundspeed 0,03514897 alt 0 climb -0,01258823 heading 340 throttle 0  sig  Len 30 crc16 20403
01/01/1970 1:00:00 FD 10  0  0 C8  1  1     B2 mavlink_ahrs2_t roll 0,004285881 pitch 0,001175817 yaw -0,3310093 altitude -0,14 lat 0 lng 0  sig  Len 28 crc16 34993
01/01/1970 1:00:00 FD 1C  0  0 C9  1  1     21 mavlink_global_position_int_t time_boot_ms 1947612 lat 0 lon 0 alt 0 relative_alt 33 vx 0 vy 4 vz 2 hdg 33996  sig  Len 40 crc16 46817
01/01/1970 1:00:00 FD 1F  0  0 CA  1  1      1 mavlink_sys_status_t onboard_control_sensors_present 1467087887 onboard_control_sensors_enabled 1365359631 onboard_control_sensors_health 1467071503 load 564 voltage_battery 0 current_battery -1 drop_rate_comm 0 errors_comm 0 errors_count1 0 errors_count2 0 errors_count3 0 errors_count4 0 battery_remaining -1  sig  Len 43 crc16 31807
01/01/1970 1:00:00 FD  5  0  0 CB  1  1     7D mavlink_power_status_t Vcc 5251 Vservo 50 flags 2  sig  Len 17 crc16 58253
01/01/1970 1:00:00 FD  6  0  0 CC  1  1     98 mavlink_meminfo_t brkval 0 freemem 42352 freemem32 42352  sig  Len 18 crc16 26088
01/01/1970 1:00:00 FD 16  0  0 CD  1  1     3E mavlink_nav_controller_output_t nav_roll 6,587314E-05 nav_pitch -9,54572E-05 alt_error 0 aspd_error 0 xtrack_error 0 nav_bearing -20 target_bearing 0 wp_dist 0  sig  Len 34 crc16 3543
01/01/1970 1:00:00 FD  1  0  0 CE  1  1     2A mavlink_mission_current_t seq 0 total 0 mission_state 0 mission_mode 0  sig  Len 13 crc16 22158
01/01/1970 1:00:00 FD  C  0  0 CF  1  1     24 mavlink_servo_output_raw_t time_usec 1947613051 servo1_raw 1000 servo2_raw 1000 servo3_raw 1000 servo4_raw 1000 servo5_raw 0 servo6_raw 0 servo7_raw 0 servo8_raw 0 port 0 servo9_raw 0 servo10_raw 0 servo11_raw 0 servo12_raw 0 servo13_raw 0 servo14_raw 0 servo15_raw 0 servo16_raw 0  sig  Len 24 crc16 32006
